{
  "joplin": {
    "lon":-122.6548975,
    "lat":45.519877,
    "title":  "Joplin @ ADX",
    "image": "https://s3-us-west-2.amazonaws.com/ppp-pics/adx_detail.jpg",
    "bio":"Our first public piano from our first year with our first partner! You can play it when you are at the wonderful ADX facility. Go on in and give it a try! Open during ADX hours.",
    "url":"http://www.pianopushplay.com/pianos/joplin"
  },
  "ellington": {
    "lon":-122.652723,
    "lat":45.518979,
    "title":  "Ellington @ Martha's",
    "image": "https://s3-us-west-2.amazonaws.com/ppp-pics/ellington.jpg",
    "bio":"From 2015 and decorated in homage to the iconic PDX airport carpet, this piano has a smooth, quiet sound.",
    "url":"http://www.pianopushplay.com/pianos/ellington"
  },
  "seeingsound": {
		"lon":-122.659702,
		"lat":45.5160913,
		"title":  "#SeeingSound @ CymaSpace",
		"image": "https://s3-us-west-2.amazonaws.com/ppp-pics/seeingsound.jpg",
		"bio":"From 2015: The result of a collaboration with CymaSpace, & Lucid Design, this vintage piano includes sound-reactive visualization electronics that respond to sounds and tones, music becoming light, color and movement. ",
		"url":"http://www.pianopushplay.com/pianos/seeingsound"
  },
  "liszt": {
    "lon":-122.71807400,
    "lat":45.51060600,
    "title":  "Liszt @ World Forestry Center",
    "image": "https://s3-us-west-2.amazonaws.com/ppp-pics/liszt.jpg",
    "bio":"This piano is uniquely Portland and a must-see work of art.  Decorated by North and in its forever home at the World Forestry Center. Visit and play!",
    "url":"http://www.pianopushplay.com/pianos/liszt"
  },
  "wendy": {
    "lon": -122.682932,
    "lat": 45.51642,
		"title":  "Wendy @ Portland Art Museum",
		"image": "https://s3-us-west-2.amazonaws.com/ppp-pics/wendy-ios.jpg",
		"bio":"This little racoon is back downtown at the Portland Art Museum. Designed by delightful artists at Open Eye Art.",
		"url":"http://www.pianopushplay.com/pianos/wendy"
  },
  "vivian": {
		"lon":-122.71989470,
		"lat":45.50850570,
		"title":  "Vivian @ The Children's Museum",
		"image": "https://s3-us-west-2.amazonaws.com/ppp-pics/vivian-ios.jpg",
		"bio":"This piano is a whole band! Come out to the Children's Museum to play and bring your friends.",
		"url":"http://www.pianopushplay.com/pianos/vivian"
  },
  "norah ": {
    "title": "Norah @ The Sentinal Hotel",
    "lon": -122.68332050,
    "lat": 45.52064800,
    "bio": "Designer Lettie Jane Rennekamp's piano, named for Norah Jones, is in one of the classiest locations in Portland, the Sentinal Hotel.",
    "image": "https://s3-us-west-2.amazonaws.com/ppp-pics/norah-ios.jpg",
    "url": "http://www.pianopushplay.com/pianos/norah"
  },
  "carole": {
    "title": "Carole @ Holladay Park",
    "lon": -122.65355587,
    "lat": 45.53073355,
    "bio": "While our pianos are beautiful any time of the day, this masterpeice by Sera Architects reveals a unique talent near the end of the day as the evening comes on. Go play it!",
    "image": "https://s3-us-west-2.amazonaws.com/ppp-pics/carol-ios.jpg",
    "url": "http://www.pianopushplay.com/pianos/carole"
  }
}
