{
	"bach ": {
		"lon":-122.6585588,
		"lat":45.5072332,
		"title":  "Bach @ PNCA",
		"image": "https://s3-us-west-2.amazonaws.com/ppp-pics/bach.jpg",
		"bio":"New location for 2015. Come play a work of art among the art in Southeast. Decorated by Ryan Bubnis and sponsored by the Portland Piano Company.",
		"url":"http://www.pianopushplay.com/pianos/bach"
	},
	"bartok ": {
		"lon":-122.652723,
		"lat":45.518979 ,
		"title":  "Bartok @ Washington High School",
		"image": "https://s3-us-west-2.amazonaws.com/ppp-pics/bartok.jpg",
		"bio":"This little red monster may have 50% more eyes than our average piano, but it sounds as sweet as can be. Decorated by Struck Agency and sponsored by Harold Goldstein.",
		"url":"http://www.pianopushplay.com/pianos/bartok"
	},
	"beethoven ": {
		"lon":-122.577449,
		"lat":45.52667,
		"title":  "Beethoven @ Montavilla Park",
		"image": "https://s3-us-west-2.amazonaws.com/ppp-pics/beethoven.jpg",
		"bio":"So Portland! The creative folks at Doug Fir Lounge put the maps on this piano as we put the piano on the map!",
		"url":"http://www.pianopushplay.com/pianos/beethoven"
	},
	"brahms": {
		"lon":-122.6548975,
		"lat":45.519877,
		"title":  "Brahms @ ADX",
		"image": "https://s3-us-west-2.amazonaws.com/ppp-pics/brahms.jpg",
		"bio":"It's a whole band in one piano! Not really a public piano, but you can play it when you are at the wonderful ADX facility. Go on in and give it a try! Open during ADX hours.",
		"url":"http://www.pianopushplay.com/pianos/adxpiano"
	},
	"clementi": {
		"lon":-122.6681924,
		"lat":45.511544,
		"title": "Clementi @ Eastbank Esplanade",
		"image": "https://s3-us-west-2.amazonaws.com/ppp-pics/clementi.jpg",
		"bio":"Currently at the Vera Katz Statue on the Eastbank Esplanade. Go serenade her now! Sponsored and decorated by the inventive artists at Awesome Portland.",
		"url":"http://www.pianopushplay.com/pianos/clementi"
	},
	"liszt": {
		"lon":-122.711495,
		"lat":45.578119,
		"title":  "Liszt @ Columbia Park",
		"image": "https://s3-us-west-2.amazonaws.com/ppp-pics/liszt.jpg",
		"bio":"This piano is uniquely Portland and a must-see work of art.  Decorated by North and sponsored by  Becker Capital Management, Inc.",
		"url":"http://www.pianopushplay.com/pianos/liszt"
	},
	"mozart": {
		"lon":-122.682932,
		"lat":45.516420,
		"title":  "Mozart @ Portland Art Museum",
		"image": "https://s3-us-west-2.amazonaws.com/ppp-pics/mozart.jpg",
		"bio":"We are always proud to place our first public piano with our good friends at the Portland Art Museum. Open during museum hours. Decorated by Jennifer Mark and Juliet Moran of Open Eye Art and sponsored by Umpqua Bank.",
		"url":"http://www.pianopushplay.com/pianos/mozart"
	},
	"scarlatti": {
		"lon":-122.664032,
		"lat":45.466509,
		"title":  "Scarlatti @ Sellwood River Park",
		"image": "https://s3-us-west-2.amazonaws.com/ppp-pics/scarlatti.jpg",
		"bio":"A wonderfully elegant piano down on the waterfront. Open during park hours. Decorated by Bureau of Betterment and sponsored by Hilton Portland & Executive Tower.",
		"url":"http://www.pianopushplay.com/pianos/scarlatti"
	}
}
