{
  "amy": {
    "title": "Amy @ Powell Butte",
    "lon": -122.49744058,
    "lat": 45.49048314,
    "bio": "By Katy Towell and named for composer Amy Beach, this petite antique-styled wonder is at the Oregon Historical Society.",
    "image": "https://s3-us-west-2.amazonaws.com/ppp-pics/amy.jpg",
    "url": "http://www.pianopushplay.com/pianos/amy"
  },
  "aretha":{
    "title": "Aretha @ Guero",
    "lon": -122.6398308,
    "lat": 45.5218208,
    "bio": "Designer Alison Pond combines abstract shapes and Portland iconography in this delightful little nugget named for Aretha Franklin.",
    "image": "https://s3-us-west-2.amazonaws.com/ppp-pics/aretha.jpg",
    "url": "http://www.pianopushplay.com/pianos/aretha"
  },
  "cat": {
    "title": "Cat @ Patton Square Park",
    "lon": -122.68135000,
    "lat": 45.56145000,
    "bio": "This colorful upright, named for musician and composer Cat Power, embodies the shape of sound. Designed by Blaine Fontana.",
    "image": "https://s3-us-west-2.amazonaws.com/ppp-pics/cat.jpg",
    "url": "http://www.pianopushplay.com/pianos/cat"
  },
  "clara":{
    "title": "Clara @ Cartlandia",
    "lon": -122.5796132,
    "lat": 45.4635325,
    "bio": "Designer Zach Yarrington wants everybody to PLAY this luminous beauty, named for pianist and composer Clara Schumann.",
    "image": "https://s3-us-west-2.amazonaws.com/ppp-pics/clara.jpg",
    "url": "http://www.pianopushplay.com/pianos/clara"
  },
  "diana ": {
    "title": "Diana @ Pioneer Place Apple Store",
    "lon": -122.67711500,
    "lat": 45.51780300,
    "bio": "Designer Cassandra Frances Swan combines contemporary illustration and cubist principles, inviting you to participate and play. Named for jazz pianist Diana Krall.",
    "image": "https://s3-us-west-2.amazonaws.com/ppp-pics/diana.jpg",
    "url": "http://www.pianopushplay.com/pianos/diana"
  },
  "fiona ":{
    "title": "Fiona @ 8th and East Burnside",
    "lon": -122.656828,
    "lat": 45.522924,
    "bio": "This piano is a tribute to Prince and David Bowie by Doug Fir Lounge.",
    "image": "https://s3-us-west-2.amazonaws.com/ppp-pics/fiona.jpg",
    "url": "http://www.pianopushplay.com/pianos/fiona"
  },
  "lili":{
    "title": "Lili @ Mt. Scott Park",
    "lon": -122.587983,
    "lat": 45.481519,
    "bio": "Take a moment to admire the detailed woodwork on this upright designed by Amy Ruppel. A delight for the eye and ear!",
    "image": "https://s3-us-west-2.amazonaws.com/ppp-pics/lili.jpg",
    "url": "http://www.pianopushplay.com/pianos/lili"
  },
  "marylou": {
    "title": "Mary Lou @ Portland Art Museum",
    "lon": -122.682932,
    "lat": 45.51642,
    "bio": "Be sure to read the legend of 'Fur Elise' on the piano. This amazing design by ZGF is incredibly detailed and entirely whimsical.",
    "image": "https://s3-us-west-2.amazonaws.com/ppp-pics/marylou.jpg",
    "url": "http://www.pianopushplay.com/pianos/marylu"
  },
  "nadia": {
    "title": "Nadia @ Youth Music Project",
    "lon": -122.652988,
    "lat": 45.345756,
    "bio": "The designers at Big Giant have merged the abstract and the concrete in a design that should be experienced up close. Call the YMP for office hours and availability",
    "image": "https://s3-us-west-2.amazonaws.com/ppp-pics/nadia.jpg",
    "url": "http://www.pianopushplay.com/pianos/nadia"
  },
  "nina":{
    "title": "Nina @ Tidbits",
    "lon": -122.6363254,
    "lat": 45.50467764,
    "bio": "Designer Julianna Bright's sense of flow and energy move through this piano named for artist Nina Simone.",
    "image": "https://s3-us-west-2.amazonaws.com/ppp-pics/nina.jpg",
    "url": "http://www.pianopushplay.com/pianos/nina"
  },
  "joplin": {
    "lon":-122.6548975,
    "lat":45.519877,
    "title":  "Joplin @ ADX",
    "image": "https://s3-us-west-2.amazonaws.com/ppp-pics/adx_detail.jpg",
    "bio":"Our first public piano from our first year with our first partner! You can play it when you are at the wonderful ADX facility. Go on in and give it a try! Open during ADX hours.",
    "url":"http://www.pianopushplay.com/pianos/joplin"
  },
  "ellington": {
		"lon":-122.652723,
		"lat":45.518979,
		"title":  "Ellington @ Martha's",
		"image": "https://s3-us-west-2.amazonaws.com/ppp-pics/ellington.jpg",
		"bio":"From 2015 and decorated in homage to the iconic PDX airport carpet, this piano has a smooth, quiet sound.",
		"url":"http://www.pianopushplay.com/pianos/ellington"
  },
  "seeingsound": {
		"lon":-122.659702,
		"lat":45.5160913,
		"title":  "#SeeingSound @ CymaSpace",
		"image": "https://s3-us-west-2.amazonaws.com/ppp-pics/seeingsound.jpg",
		"bio":"From 2015: The result of a collaboration with CymaSpace, & Lucid Design, this vintage piano includes sound-reactive visualization electronics that respond to sounds and tones, music becoming light, color and movement. ",
		"url":"http://www.pianopushplay.com/pianos/seeingsound"
  },
  "liszt": {
    "lon":-122.71807400,
    "lat":45.51060600,
    "title":  "Liszt @ World Forestry Center",
    "image": "https://s3-us-west-2.amazonaws.com/ppp-pics/liszt.jpg",
    "bio":"This piano is uniquely Portland and a must-see work of art.  Decorated by North and in its forever home at the World Forestry Center. Visit and play!",
    "url":"http://www.pianopushplay.com/pianos/liszt"
  }
}
