{
  "joplin": {
    "lon":-122.6548975,
    "lat":45.519877,
    "title":  "Joplin @ ADX",
    "image": "https://s3-us-west-2.amazonaws.com/ppp-pics/adx_detail.jpg",
    "bio":"Our first public piano from our first year with our first partner! You can play it when you are at the wonderful ADX facility. Go on in and give it a try! Open during ADX hours.",
    "url":"http://www.pianopushplay.com/pianos/joplin"
  },
  "ellington": {
    "lon":-122.652723,
    "lat":45.518979,
    "title":  "Ellington @ Martha's",
    "image": "https://s3-us-west-2.amazonaws.com/ppp-pics/ellington.jpg",
    "bio":"From 2015 and decorated in homage to the iconic PDX airport carpet, this piano has a smooth, quiet sound.",
    "url":"http://www.pianopushplay.com/pianos/ellington"
  },
  "seeingsound": {
		"lon":-122.659702,
		"lat":45.5160913,
		"title":  "#SeeingSound @ CymaSpace",
		"image": "https://s3-us-west-2.amazonaws.com/ppp-pics/seeingsound.jpg",
		"bio":"From 2015: The result of a collaboration with CymaSpace, & Lucid Design, this vintage piano includes sound-reactive visualization electronics that respond to sounds and tones, music becoming light, color and movement. ",
		"url":"http://www.pianopushplay.com/pianos/seeingsound"
  },
  "liszt": {
    "lon":-122.71807400,
    "lat":45.51060600,
    "title":  "Liszt @ World Forestry Center",
    "image": "https://s3-us-west-2.amazonaws.com/ppp-pics/liszt.jpg",
    "bio":"This piano is uniquely Portland and a must-see work of art.  Decorated by North and in its forever home at the World Forestry Center. Visit and play!",
    "url":"http://www.pianopushplay.com/pianos/liszt"
  },
"tori ":{
    "title": "Tori  @ Pioneer Place Apple Store",
    "lon": -122.67711500,
    "lat": 45.51780300,
    "bio": "Designed by Megan McGeorge with Tattly tattoos and named for Tori Amos.",
    "image": "https://s3-us-west-2.amazonaws.com/ppp-pics/tori-ios.jpg",
    "url": "http://www.pianopushplay.com/pianos/tori"
  },
  "wendy": {
		"lon":-122.76207700,
		"lat":45.58704800,
		"title":  "Wendy @ Cathedral Park",
		"image": "https://s3-us-west-2.amazonaws.com/ppp-pics/wendy-ios.jpg",
		"bio":"This little racoon is out playing under the bridge in beautiful Cathedral Park. Designed by delightful artists at Open Eye Art.",
		"url":"http://www.pianopushplay.com/pianos/wendy"
  },
  "vivian": {
		"lon":-122.71989470,
		"lat":45.50850570,
		"title":  "Vivian @ The Children's Museum",
		"image": "https://s3-us-west-2.amazonaws.com/ppp-pics/vivian-ios.jpg",
		"bio":"This piano is a whole band! Come out to the Children's Museum to play and bring your friends.",
		"url":"http://www.pianopushplay.com/pianos/vivian"
  },
  "geri ":{
    "title": "Geri @ 8th and East Burnside",
    "lon": -122.656828,
    "lat": 45.522924,
    "bio": "One of our most popular locations. Honoring the late Geri Allen and decorated by Doug Fir Lounge.",
    "image": "https://s3-us-west-2.amazonaws.com/ppp-pics/geri-ios.jpg",
    "url": "http://www.pianopushplay.com/pianos/geri"
  },
  "norah ": {
    "title": "Norah @ Mt. Tabor",
    "lon": -122.59312400,
    "lat": 45.51312300,
    "bio": "Designer Lettie Jane Rennekamp invites you to explore the jungle foliage and find what's hidden in this piano, named for Norah Jones.",
    "image": "https://s3-us-west-2.amazonaws.com/ppp-pics/norah-ios.jpg",
    "url": "http://www.pianopushplay.com/pianos/norah"
  },
  "carole": {
    "title": "Carole @ Portland Art Museum",
    "lon": -122.682932,
    "lat": 45.51642,
    "bio": "While our pianos are beautiful any time of the day, this masterpeice by Sera Architects reveals a unique talent near the end of the day as the evening comes on. Go play it!",
    "image": "https://s3-us-west-2.amazonaws.com/ppp-pics/carol-ios.jpg",
    "url": "http://www.pianopushplay.com/pianos/carole"
  }
}
