{
  "alicia": {
    "lat":45.53313340,
    "lon":-122.55438670,
    "title":  "Alicia @ Gateway Discovery Park",
    "image": "https://s3-us-west-2.amazonaws.com/ppp-pics/alicia.jpg",
    "bio":"Alicia is a multi-media creation of Nicky Kriara. It's at Portland's newest public space, Gateway Discovery Park. ",
    "url":"http://www.pianopushplay.com/pianos/alicia"
  },
  "martha": {
    "lon":-122.75193700,
    "lat":45.39665330,
    "title":  "Martha @ Bridgeport Village",
    "image": "https://s3-us-west-2.amazonaws.com/ppp-pics/martha.jpg",
    "bio":"Martha is a delightful collaboration from returning Piano. Push. Play. artists Lettie Jane Rennekamp , Cassandra Swan, and Michael Buchino.  Open during business hours.",
    "url":"http://www.pianopushplay.com/pianos/martha"
  },
  "idil": {
    "lon": -122.71989470,
    "lat": 45.50850570,
		"title":  "Idil @ The Portland Children's Museum",
		"image": "https://s3-us-west-2.amazonaws.com/ppp-pics/idil.jpg",
		"bio":"The always delightful Julz Nally created this piano, waiting for you at our most fun location. Open during business hours.",
		"url":"http://www.pianopushplay.com/pianos/idil"
  },  
  "christine": {
		"lon":-122.65494500,
		"lat":45.52043550,
		"title":  "Christine @ ADX",
		"image": "https://s3-us-west-2.amazonaws.com/ppp-pics/cristine.jpg",
		"bio":"This piano is a delight! It's inside ADX, our long-time partners. Call to see if they're open and go play!",
		"url":"http://www.pianopushplay.com/pianos/christine"
  },
  "stevie": {
    "lat":45.52292400,
    "lon":-122.65682800,
    "title":  "Stevie @ Doug Fir Lounge",
    "image": "https://s3-us-west-2.amazonaws.com/ppp-pics/stevie.jpg",
    "bio":"This piano, decorated by the team at Doug Fir, represents all the great bands that have played there. Open during business hours.",
    "url":"http://www.pianopushplay.com/pianos/stevie"
  },
  "maria": {
    "lat": 45.52464650,
    "lon": -122.67360000,
		"title":  "Maria @ Society Hotel Rooftop",
		"image": "https://s3-us-west-2.amazonaws.com/ppp-pics/maria.jpg",
		"bio":"Up on the roof overlooking Portland in the Summer air, find this wonderful piano with a timely message.  Open during business hours.",
		"url":"http://www.pianopushplay.com/pianos/maria"
  },
  "annie": {
    "title": "Annie @ Portland Art Museum",
    "lat": 45.51642000,
    "lon": -122.68293200,
    "bio": "Designer Deadstock Coffee gives us this simple piano at our flagship location. Go play it! Open during business hours.",
    "image": "https://s3-us-west-2.amazonaws.com/ppp-pics/annie.jpg",
    "url": "http://www.pianopushplay.com/pianos/annie"
  },
  "wendy": {
    "title": "Wendy @ OHSU tram",
    "lat": 45.49913820,
    "lon": -122.67073090,
    "bio": "The team at Open Eye Art brings us this delightful racoon from our previous seasons. Now, it's at a new location, at OHSU at the tram on the South Waterfront. ",
    "image": "https://s3-us-west-2.amazonaws.com/ppp-pics/wendy-ios.jpg",
    "url": "http://www.pianopushplay.com/pianos/wendy"
  },
  "liszt": {
    "lon":-122.71807400,
    "lat":45.51060600,
    "title":  "Liszt @ World Forestry Center",
    "image": "https://s3-us-west-2.amazonaws.com/ppp-pics/liszt.jpg",
    "bio":"This piano is uniquely Portland and a must-see work of art.  Decorated by North and in its forever home at the World Forestry Center. Open during business hours. Visit and play!",
    "url":"http://www.pianopushplay.com/pianos/liszt"
  },
  "nina": {
    "lon":-122.65578330,
    "lat":45.49770790,
    "title":  "Nina @ Know Thy Food Coop",
    "image": "https://s3-us-west-2.amazonaws.com/ppp-pics/nina.jpg",
    "bio":"First seen in our 2015 season, this delightful piano by Julianna Bright is waiting for you among the food carts. Open during business hours. Visit and play!",
    "url":"http://www.pianopushplay.com/pianos/nina"
  },
  "haydn": {
    "lon":-122.68383900,
    "lat":45.52417770,
    "title":  "Haydn @ Portland Center Stage",
    "image": "https://s3-us-west-2.amazonaws.com/ppp-pics/haydn.jpg",
    "bio":"This quietly classic design from our 2015 season features a detailed map of Portland presented in gold. Open during business hours. Visit, play, and take in a show!",
    "url":"http://www.pianopushplay.com/pianos/haydn"
  },
  "anna": {
    "lon":-122.68670800,
    "lat":45.39322600,
    "title":  "Anna @ Luscher Farm",
    "image": "https://s3-us-west-2.amazonaws.com/ppp-pics/anna.jpg",
    "bio":"Maureen Long's colorful design is still available at Luscher Farms, waiting for you to visit. Open during business hours.",
    "url":"http://www.pianopushplay.com/pianos/anna"
  }
}
